{
"type": "FeatureCollection",
"name": "cayxang_VinhLong",
"crs": { "type": "name", "properties": { "name": "urn:ogc:def:crs:OGC:1.3:CRS84" } },
"features": [
{ "type": "Feature", "properties": { "name": "Cửa hàng Xăng dầu Petrolimex Số 15", "address": "5WHM+XRP, KCN, Long Hồ, Vĩnh Long", "lat": 10.1799667, "lng": 105.9345654 }, "geometry": { "type": "Point", "coordinates": [ 105.9345654, 10.1799667 ] } },
{ "type": "Feature", "properties": { "name": "Cửa hàng Xăng dầu Petrolimex Số 31", "address": "6WPJ+GX2, Tân Hạnh, Long Hồ, Vĩnh Long", "lat": 10.2362544, "lng": 105.9323986 }, "geometry": { "type": "Point", "coordinates": [ 105.9323986, 10.2362544 ] } },
{ "type": "Feature", "properties": { "name": "Cửa hàng Xăng dầu Petrolimex Số 16", "address": "6W7Q+GJ8, QL1A, Tân Hạnh, Long Hồ, Vĩnh Long", "lat": 10.213778, "lng": 105.9390821 }, "geometry": { "type": "Point", "coordinates": [ 105.9390821, 10.213778 ] } },
{ "type": "Feature", "properties": { "name": "Cửa hàng Xăng dầu Petrolimex Số 23", "address": "23 Trần Đại Nghĩa, Phường 4, Vĩnh Long", "lat": 10.2397803, "lng": 105.9836828 }, "geometry": { "type": "Point", "coordinates": [ 105.9836828, 10.2397803 ] } },
{ "type": "Feature", "properties": { "name": "Cửa hàng Xăng dầu Petrolimex Số 03", "address": "7X37+W3W, Phạm Hùng, Vĩnh Long", "lat": 10.2548567, "lng": 105.9627147 }, "geometry": { "type": "Point", "coordinates": [ 105.9627147, 10.2548567 ] } },
{ "type": "Feature", "properties": { "name": "Cửa hàng Xăng dầu Petrolimex Số 06", "address": "641 Trần Phú, Phường 4, Vĩnh Long", "lat": 10.245506, "lng": 105.9833261 }, "geometry": { "type": "Point", "coordinates": [ 105.9833261, 10.245506 ] } },
{ "type": "Feature", "properties": { "name": "Cửa hàng Xăng dầu Petrolimex Số 32", "address": "6XR2+FXX, QL53, Phường 8, Vĩnh Long", "lat": 10.241239, "lng": 105.9524918 }, "geometry": { "type": "Point", "coordinates": [ 105.9524918, 10.241239 ] } },
{ "type": "Feature", "properties": { "name": "Cửa hàng Xăng dầu Petrolimex Số 68", "address": "71/22A Đ. Phó Cơ Điều, Phường 3, Vĩnh Long", "lat": 10.2344825, "lng": 105.9658838 }, "geometry": { "type": "Point", "coordinates": [ 105.9658838, 10.2344825 ] } },
{ "type": "Feature", "properties": { "name": "Cửa hàng Xăng dầu Petrolimex Số 17", "address": "7X24+CQ3, Phường 9, Vĩnh Long", "lat": 10.2510027, "lng": 105.9569074 }, "geometry": { "type": "Point", "coordinates": [ 105.9569074, 10.2510027 ] } },
{ "type": "Feature", "properties": { "name": "Cửa hàng Xăng dầu Petrolimex Số 27", "address": "5W4F+2VP, QL1A, Hoà Phú, Long Hồ, Vĩnh Long", "lat": 10.1550931, "lng": 105.9246905 }, "geometry": { "type": "Point", "coordinates": [ 105.9246905, 10.1550931 ] } },
{ "type": "Feature", "properties": { "name": "Cửa hàng Xăng dầu Petrolimex Số 37", "address": "7X53+8J4, Phạm Hùng, Vĩnh Long", "lat": 10.2582532, "lng": 105.9540739 }, "geometry": { "type": "Point", "coordinates": [ 105.9540739, 10.2582532 ] } },
{ "type": "Feature", "properties": { "name": "Cửa hàng Xăng dầu Petrolimex tân vạn lợi", "address": "6W2V+42J, QL1A, Tân Hạnh, Long Hồ, Vĩnh Long", "lat": 10.2003282, "lng": 105.9425225 }, "geometry": { "type": "Point", "coordinates": [ 105.9425225, 10.2003282 ] } },
{ "type": "Feature", "properties": { "name": "Cửa hàng Xăng dầu Petrolimex Số 10", "address": "ĐT902, An Phước, Mang Thít, Vĩnh Long", "lat": 10.2335597, "lng": 106.1057941 }, "geometry": { "type": "Point", "coordinates": [ 106.1057941, 10.2335597 ] } },
{ "type": "Feature", "properties": { "name": "Cửa hàng Xăng dầu Petrolimex Số 2", "address": "2A Nguyễn Huệ, Phường 1, Vĩnh Long", "lat": 10.2544523, "lng": 105.9629299 }, "geometry": { "type": "Point", "coordinates": [ 105.9629299, 10.2544523 ] } },
{ "type": "Feature", "properties": { "name": "Cửa hàng Xăng dầu Petrolimex Số 41", "address": "54XR+P7X, ĐT902, An Phước, Mang Thít, Vĩnh Long", "lat": 10.1993514, "lng": 106.1407329 }, "geometry": { "type": "Point", "coordinates": [ 106.1407329, 10.1993514 ] } },
{ "type": "Feature", "properties": { "name": "Cửa hàng Xăng dầu Petrolimex Số 25", "address": "Phú Quới, Long Hồ, Vĩnh Long", "lat": 10.1614508, "lng": 105.9227648 }, "geometry": { "type": "Point", "coordinates": [ 105.9227648, 10.1614508 ] } },
{ "type": "Feature", "properties": { "name": "Cửa hàng Xăng dầu Petrolimex Số 13", "address": "7W94+232, QL80, Tân Hoà, Vĩnh Long", "lat": 10.2675069, "lng": 105.9051531 }, "geometry": { "type": "Point", "coordinates": [ 105.9051531, 10.2675069 ] } },
{ "type": "Feature", "properties": { "name": "Cửa hàng Xăng dầu Petrolimex Số 01", "address": "210A Lê Thái Tổ, Phường 1, Vĩnh Long", "lat": 10.2548109, "lng": 105.9635377 }, "geometry": { "type": "Point", "coordinates": [ 105.9635377, 10.2548109 ] } },
{ "type": "Feature", "properties": { "name": "Cửa hàng Xăng dầu Petrolimex Số 30", "address": "52C9+7RW, QL53, Long An, Long Hồ, Vĩnh Long", "lat": 10.1707466, "lng": 106.0195887 }, "geometry": { "type": "Point", "coordinates": [ 106.0195887, 10.1707466 ] } },
{ "type": "Feature", "properties": { "name": "Cửa hàng Xăng dầu Petrolimex Số 18", "address": "52CC+7PP, ĐT903, Long An, Long Hồ, Vĩnh Long", "lat": 10.1707077, "lng": 106.0218406 }, "geometry": { "type": "Point", "coordinates": [ 106.0218406, 10.1707077 ] } },
{ "type": "Feature", "properties": { "name": "Cửa hàng Xăng dầu Petrolimex Số 35", "address": "5WRQ+69M, Phước Long, Long Hồ, Vĩnh Long", "lat": 10.1905846, "lng": 105.9384286 }, "geometry": { "type": "Point", "coordinates": [ 105.9384286, 10.1905846 ] } },
{ "type": "Feature", "properties": { "name": "Cửa hàng Xăng dầu Petrolimex Số 75", "address": "33/5F Phạm Thái Bường, Phường 4, Vĩnh Long", "lat": 10.2413572, "lng": 105.9801662 }, "geometry": { "type": "Point", "coordinates": [ 105.9801662, 10.2413572 ] } },
{ "type": "Feature", "properties": { "name": "Cửa hàng Xăng dầu Petrolimex Số 74", "address": "67/25E, Đ. Phó Cơ Điều, Phường 4, Vĩnh Long", "lat": 10.2336742, "lng": 105.9816313 }, "geometry": { "type": "Point", "coordinates": [ 105.9816313, 10.2336742 ] } },
{ "type": "Feature", "properties": { "name": "Cửa hàng Xăng dầu Petrolimex Số 09", "address": "4X5C+J5W, Mỹ Lộc, Tam Bình, Vĩnh Long", "lat": 10.1091157, "lng": 105.9704384 }, "geometry": { "type": "Point", "coordinates": [ 105.9704384, 10.1091157 ] } },
{ "type": "Feature", "properties": { "name": "Cửa hàng Xăng dầu Petrolimex Số 62", "address": "52Q9+748, QL53, tt. Long Hồ, Long Hồ, Vĩnh Long", "lat": 10.1881193, "lng": 106.017847 }, "geometry": { "type": "Point", "coordinates": [ 106.017847, 10.1881193 ] } },
{ "type": "Feature", "properties": { "name": "Cửa hàng Xăng dầu Petrolimex Số 19", "address": "635P+GVX, Nhơn Phú, Mang Thít, Vĩnh Long", "lat": 10.2088668, "lng": 106.0872459 }, "geometry": { "type": "Point", "coordinates": [ 106.0872459, 10.2088668 ] } },
{ "type": "Feature", "properties": { "name": "Cửa hàng Xăng dầu Petrolimex Số 22", "address": "67/24h Đ. Phó Cơ Điều, Phường 3, Vĩnh Long", "lat": 10.2318677, "lng": 105.9847403 }, "geometry": { "type": "Point", "coordinates": [ 105.9847403, 10.2318677 ] } },
{ "type": "Feature", "properties": { "name": "Cửa hàng Xăng dầu Petrolimex Số 04", "address": "30E QL80, Tân Hội, Vĩnh Long", "lat": 10.2659653, "lng": 105.8980325 }, "geometry": { "type": "Point", "coordinates": [ 105.8980325, 10.2659653 ] } },
{ "type": "Feature", "properties": { "name": "Cửa hàng Xăng dầu Petrolimex Số 11", "address": "ĐT909 An Hòa, tt. Long Hồ, Long Hồ, Vĩnh Long", "lat": 10.176754, "lng": 105.9837479 }, "geometry": { "type": "Point", "coordinates": [ 105.9837479, 10.176754 ] } },
{ "type": "Feature", "properties": { "name": "Cửa hàng Xăng dầu Petrolimex Số 08", "address": "6WRQ+RWW, Đ. Phan Văn Đáng, Trường An, Long Hồ, Vĩnh Long", "lat": 10.2421153, "lng": 105.9398425 }, "geometry": { "type": "Point", "coordinates": [ 105.9398425, 10.2421153 ] } },
{ "type": "Feature", "properties": { "name": "Cửa hàng Xăng dầu Petrolimex Số 63", "address": "6X6W+F59, QL53, Long Phước, Long Hồ, Vĩnh Long", "lat": 10.2111085, "lng": 105.9954151 }, "geometry": { "type": "Point", "coordinates": [ 105.9954151, 10.2111085 ] } },
{ "type": "Feature", "properties": { "name": "Cửa hàng Xăng dầu Petrolimex Số 21", "address": "355W+JXW, Trung Ngãi, Vũng Liêm, Vĩnh Long", "lat": 10.0591127, "lng": 106.1974646 }, "geometry": { "type": "Point", "coordinates": [ 106.1974646, 10.0591127 ] } },
{ "type": "Feature", "properties": { "name": "Cửa hàng Xăng dầu Petrolimex Số 14", "address": "XW9H+H88, QL54, Trà Ôn, Vĩnh Long", "lat": 9.968917, "lng": 105.928316 }, "geometry": { "type": "Point", "coordinates": [ 105.928316, 9.968917 ] } },
{ "type": "Feature", "properties": { "name": "Cửa hàng Xăng dầu Petrolimex Số 24", "address": "6XMV+RGC, Thanh Đức, Long Hồ, Vĩnh Long", "lat": 10.2345546, "lng": 105.9937628 }, "geometry": { "type": "Point", "coordinates": [ 105.9937628, 10.2345546 ] } },
{ "type": "Feature", "properties": { "name": "Cửa hàng Xăng dầu Petrolimex Số 42", "address": "54F5+WRP, Cái Nhum, Mang Thít, Vĩnh Long", "lat": 10.1748456, "lng": 106.1095634 }, "geometry": { "type": "Point", "coordinates": [ 106.1095634, 10.1748456 ] } },
{ "type": "Feature", "properties": { "name": "Cửa hàng Xăng dầu Petrolimex Số 76", "address": "6W7X+M4C, Đinh Tiên Hoàng, Tân Hạnh, Long Hồ, Vĩnh Long", "lat": 10.2141997, "lng": 105.9477525 }, "geometry": { "type": "Point", "coordinates": [ 105.9477525, 10.2141997 ] } },
{ "type": "Feature", "properties": { "name": "Cửa hàng Xăng dầu Petrolimex Số 57", "address": "X35J+6JW, Hựu Thành, Trà Ôn, Vĩnh Long", "lat": 9.9581168, "lng": 106.0815717 }, "geometry": { "type": "Point", "coordinates": [ 106.0815717, 9.9581168 ] } },
{ "type": "Feature", "properties": { "name": "Cửa hàng Xăng dầu Petrolimex Số 70", "address": "6223+H6M, QL53, tt. Long Hồ, Long Hồ, Vĩnh Long", "lat": 10.2014758, "lng": 106.0030424 }, "geometry": { "type": "Point", "coordinates": [ 106.0030424, 10.2014758 ] } },
{ "type": "Feature", "properties": { "name": "Cửa hàng Xăng dầu Petrolimex Số 29", "address": "2X23+6R2, ĐT904, Loan Mỹ, Tam Bình, Vĩnh Long", "lat": 10.0005021, "lng": 105.9545184 }, "geometry": { "type": "Point", "coordinates": [ 105.9545184, 10.0005021 ] } },
{ "type": "Feature", "properties": { "name": "Cửa hàng Xăng dầu Petrolimex Số 60", "address": "197 Mười Bốn Tháng Chín, Phường 5, Long Hồ, Vĩnh Long", "lat": 10.2580381, "lng": 105.9995259 }, "geometry": { "type": "Point", "coordinates": [ 105.9995259, 10.2580381 ] } },
{ "type": "Feature", "properties": { "name": "Cửa hàng Xăng dầu Petrolimex Số 45", "address": "Tổ 20 ấp Thạnh An, Hoà Thạnh, Tam Bình, Vĩnh Long", "lat": 10.1418174, "lng": 106.0367429 }, "geometry": { "type": "Point", "coordinates": [ 106.0367429, 10.1418174 ] } },
{ "type": "Feature", "properties": { "name": "Cửa hàng Xăng dầu Petrolimex Số 56", "address": "XW7C+753, Trà Ôn, Vĩnh Long", "lat": 9.9631474, "lng": 105.9204215 }, "geometry": { "type": "Point", "coordinates": [ 105.9204215, 9.9631474 ] } },
{ "type": "Feature", "properties": { "name": "Cửa hàng Xăng dầu Petrolimex Số 48", "address": "QL53, Hiếu Phụng, Vũng Liêm, Vĩnh Long", "lat": 10.086482, "lng": 106.1108792 }, "geometry": { "type": "Point", "coordinates": [ 106.1108792, 10.086482 ] } },
{ "type": "Feature", "properties": { "name": "Cửa hàng Xăng dầu Petrolimex Số 7", "address": "4WM8+VX7, QL1A, Song Phú, Tam Bình, Vĩnh Long", "lat": 10.1346655, "lng": 105.9174212 }, "geometry": { "type": "Point", "coordinates": [ 105.9174212, 10.1346655 ] } },
{ "type": "Feature", "properties": { "name": "Cửa hàng Xăng dầu Petrolimex Số 44", "address": "3X5Q+FWF, ĐT904, Mỹ Thạnh Trung, Tam Bình, Vĩnh Long", "lat": 10.0586789, "lng": 105.989806 }, "geometry": { "type": "Point", "coordinates": [ 105.989806, 10.0586789 ] } },
{ "type": "Feature", "properties": { "name": "Cửa hàng Xăng dầu Petrolimex Số 26", "address": "43HP+W3G, Tân An Hội, Mang Thít, Vĩnh Long", "lat": 10.1297847, "lng": 106.0852591 }, "geometry": { "type": "Point", "coordinates": [ 106.0852591, 10.1297847 ] } },
{ "type": "Feature", "properties": { "name": "\"Petrolimex Vĩnh long\" CỬA HÀNG 28", "address": "Tổ 05 ấp Thân Bình, Bình Phước, Mang Thít, Vĩnh Long 85000", "lat": 10.1670451, "lng": 106.0438336 }, "geometry": { "type": "Point", "coordinates": [ 106.0438336, 10.1670451 ] } },
{ "type": "Feature", "properties": { "name": "Cửa hàng Xăng dầu Petrolimex Số 20", "address": "52W8+428, ĐT909, Hoà Tịnh, Mang Thít, Vĩnh Long", "lat": 10.1952857, "lng": 106.0150824 }, "geometry": { "type": "Point", "coordinates": [ 106.0150824, 10.1952857 ] } },
{ "type": "Feature", "properties": { "name": "Cửa hàng Xăng dầu Petrolimex Số 55", "address": "35JR+4JF, QL53, Trung Thành, Vũng Liêm, Vĩnh Long", "lat": 10.0803088, "lng": 106.1915379 }, "geometry": { "type": "Point", "coordinates": [ 106.1915379, 10.0803088 ] } },
{ "type": "Feature", "properties": { "name": "Cửa hàng Xăng dầu Petrolimex Số 49", "address": "35JF+8X4, Trung Hiếu, Vũng Liêm, Vĩnh Long", "lat": 10.0807746, "lng": 106.1749578 }, "geometry": { "type": "Point", "coordinates": [ 106.1749578, 10.0807746 ] } },
{ "type": "Feature", "properties": { "name": "Cửa hàng Xăng dầu Petrolimex Số 69", "address": "XVVM+M2J, Đông Thành, Bình Minh, Vĩnh Long", "lat": 9.994208, "lng": 105.8825205 }, "geometry": { "type": "Point", "coordinates": [ 105.8825205, 9.994208 ] } },
{ "type": "Feature", "properties": { "name": "Cửa hàng Xăng dầu Petrolimex Số 59", "address": "22PX+78V, ĐT901, Hoà Bình, Trà Ôn, Vĩnh Long", "lat": 10.0357382, "lng": 106.048306 }, "geometry": { "type": "Point", "coordinates": [ 106.048306, 10.0357382 ] } },
{ "type": "Feature", "properties": { "name": "Cửa hàng Xăng dầu Petrolimex Số 51", "address": "QL53, Trung Nghĩa, Vũng Liêm, Vĩnh Long", "lat": 10.0328784, "lng": 106.2038841 }, "geometry": { "type": "Point", "coordinates": [ 106.2038841, 10.0328784 ] } },
{ "type": "Feature", "properties": { "name": "Cửa hàng Xăng dầu Petrolimex Số 53", "address": "465J+7CQ, Thanh Bình, Vũng Liêm, Vĩnh Long", "lat": 10.1081906, "lng": 106.2310463 }, "geometry": { "type": "Point", "coordinates": [ 106.2310463, 10.1081906 ] } },
{ "type": "Feature", "properties": { "name": "Cây xăng Phú Vĩnh Long - Petrolimex", "address": "117 QL1A, Tân Ngãi, Vĩnh Long", "lat": 10.299406, "lng": 105.9204648 }, "geometry": { "type": "Point", "coordinates": [ 105.9204648, 10.299406 ] } },
{ "type": "Feature", "properties": { "name": "Cửa hàng Xăng dầu Petrolimex Số 46", "address": "3VXJ+V7C, QL1A, Tân Phú, Tam Bình, Vĩnh Long", "lat": 10.0996838, "lng": 105.8806495 }, "geometry": { "type": "Point", "coordinates": [ 105.8806495, 10.0996838 ] } },
{ "type": "Feature", "properties": { "name": "Cửa hàng Xăng dầu Petrolimex Số 47", "address": "24J5+FXQ, Hiếu Nhơn, Vũng Liêm, Vĩnh Long", "lat": 10.0312194, "lng": 106.1099951 }, "geometry": { "type": "Point", "coordinates": [ 106.1099951, 10.0312194 ] } },
{ "type": "Feature", "properties": { "name": "Cửa hàng Xăng dầu Petrolimex Số 61", "address": "522G+F6R, Long An, Long Hồ, Vĩnh Long", "lat": 10.1512469, "lng": 106.025531 }, "geometry": { "type": "Point", "coordinates": [ 106.025531, 10.1512469 ] } },
{ "type": "Feature", "properties": { "name": "Cửa hàng Xăng dầu Petrolimex Số 58", "address": "3R6G+2JP, QL54, Đông Thuận, Bình Minh, Vĩnh Long", "lat": 10.0600789, "lng": 105.8265721 }, "geometry": { "type": "Point", "coordinates": [ 105.8265721, 10.0600789 ] } },
{ "type": "Feature", "properties": { "name": "Cửa hàng Xăng dầu Petrolimex Số 73", "address": "259 QL1A, Phú Thịnh, Tam Bình, Vĩnh Long", "lat": 10.1395454, "lng": 105.9188013 }, "geometry": { "type": "Point", "coordinates": [ 105.9188013, 10.1395454 ] } },
{ "type": "Feature", "properties": { "name": "Cửa hàng Xăng dầu Petrolimex Số 38", "address": "5QFG+FPJ, ĐT908, Tân Thành, Bình Tân, Vĩnh Long", "lat": 10.1737278, "lng": 105.7768069 }, "geometry": { "type": "Point", "coordinates": [ 105.7768069, 10.1737278 ] } },
{ "type": "Feature", "properties": { "name": "Petrolimex số 33", "address": "Tổ 13, ấp Tân Lộc, QL54, Tân Lược, Bình Tân, Vĩnh Long 85414", "lat": 10.1377824, "lng": 105.7192415 }, "geometry": { "type": "Point", "coordinates": [ 105.7192415, 10.1377824 ] } },
{ "type": "Feature", "properties": { "name": "Cửa hàng Xăng dầu Petrolimex Số 66", "address": "3RCF+925, Cái Vồn, Bình Minh, Vĩnh Long", "lat": 10.0708846, "lng": 105.8226004 }, "geometry": { "type": "Point", "coordinates": [ 105.8226004, 10.0708846 ] } },
{ "type": "Feature", "properties": { "name": "Cửa hàng Xăng dầu Petimex Số 45 - Long Hiệp", "address": "525C+MQ4, QL53, Tân Long, Long Hồ, Vĩnh Long", "lat": 10.159141, "lng": 106.0219533 }, "geometry": { "type": "Point", "coordinates": [ 106.0219533, 10.159141 ] } },
{ "type": "Feature", "properties": { "name": "Cửa hàng Xăng dầu Petrolimex Số 36", "address": "200 QL1A, Song Phú, Tam Bình, Vĩnh Long", "lat": 10.1111694, "lng": 105.8914169 }, "geometry": { "type": "Point", "coordinates": [ 105.8914169, 10.1111694 ] } },
{ "type": "Feature", "properties": { "name": "Cửa hàng Xăng dầu Petrolimex Số 39", "address": "3Q8V+CFR, QL54, Thành Lợi, Bình Tân, Vĩnh Long", "lat": 10.0661014, "lng": 105.7936476 }, "geometry": { "type": "Point", "coordinates": [ 105.7936476, 10.0661014 ] } },
{ "type": "Feature", "properties": { "name": "Cửa hàng Xăng dầu Petroimex Số 64", "address": "72F4+5MP, Bình Hoà Phước, Long Hồ, Vĩnh Long", "lat": 10.2729522, "lng": 106.0067181 }, "geometry": { "type": "Point", "coordinates": [ 106.0067181, 10.2729522 ] } },
{ "type": "Feature", "properties": { "name": "Cửa hàng Xăng dầu Petrolimex Số 43", "address": "53CV+8C8, ĐT903, Cái Nhum, Mang Thít, Vĩnh Long", "lat": 10.1707763, "lng": 106.0935676 }, "geometry": { "type": "Point", "coordinates": [ 106.0935676, 10.1707763 ] } },
{ "type": "Feature", "properties": { "name": "Cửa hàng Xăng dầu Petrolimex Số 52", "address": "447J+FVH, ĐH 61, Trung Hiệp, Vũng Liêm, Vĩnh Long", "lat": 10.1135942, "lng": 106.1321381 }, "geometry": { "type": "Point", "coordinates": [ 106.1321381, 10.1135942 ] } },
{ "type": "Feature", "properties": { "name": "Cửa hàng Xăng dầu Petrolimex Số 40", "address": "62RW+MXW, ĐT902, Mỹ An, Mang Thít, Vĩnh Long", "lat": 10.241727, "lng": 106.0474399 }, "geometry": { "type": "Point", "coordinates": [ 106.0474399, 10.241727 ] } },
{ "type": "Feature", "properties": { "name": "Cửa hàng Xăng dầu Petrolimex Số 08", "address": "2644+PC2, QL53, TT. Càng Long, Càng Long, Trà Vinh", "lat": 10.0067667, "lng": 106.2060158 }, "geometry": { "type": "Point", "coordinates": [ 106.2060158, 10.0067667 ] } },
{ "type": "Feature", "properties": { "name": "Cửa hàng Xăng dầu Petrolimex Số 54", "address": "454J+84F, Ấp Hòa Nghĩa, Vũng Liêm, Vĩnh Long", "lat": 10.1058218, "lng": 106.180283 }, "geometry": { "type": "Point", "coordinates": [ 106.180283, 10.1058218 ] } },
{ "type": "Feature", "properties": { "name": "Petrolimex Số 65", "address": "4Q32+M3G, QL54, Tân Qưới, Bình Tân, Vĩnh Long", "lat": 10.104197, "lng": 105.7501915 }, "geometry": { "type": "Point", "coordinates": [ 105.7501915, 10.104197 ] } },
{ "type": "Feature", "properties": { "name": "CỬA HÀNG XĂNG DẦU CAM THỦY 22", "address": "QL1A, Mỹ Hoà, Bình Minh, Vĩnh Long", "lat": 10.0439973, "lng": 105.8227865 }, "geometry": { "type": "Point", "coordinates": [ 105.8227865, 10.0439973 ] } }
]
}
